hospital_id,name,area,hospital_type,latitude,longitude,total_beds,available_beds,total_icu_beds,available_icu_beds,total_trauma_bays,avail_trauma_bays,specialist_roster,equipment_inventory,helipad,trauma_center_level,avg_response_time_min
PUN001,"AADHAR HOSPITAL MULTISPECIALITY & ICU ( Managed by Haritatv Ayurved Pvt. Ltd.),Pune",Pune,Private,18.6253,73.8065,30,8,4,0,1,0,Pulmonologist | Gastroenterologist | Nephrologist | Neurologist | Emergency Medicine,Dialysis Unit | ECG Machine | Cath Lab | CT Scanner | X-Ray Machine | Ventilators,No,Level I,13.8
PUN002,ACCORD HOSPITAL,Pune,Government,18.5312,73.8417,150,38,22,2,7,6,Gastroenterologist | Radiologist | Oncologist | Nephrologist | Pulmonologist,MRI Machine | Blood Bank | Dialysis Unit | X-Ray Machine | Ultrasound | CT Scanner,Yes,Level I,10.9
PUN003,ADHAR SUPERSPECIALITY HOSPITAL,Pune,Private,18.4995,73.931,45,11,6,0,2,2,Pulmonologist | Gastroenterologist | Radiologist | Trauma Surgeon | Nephrologist,Cath Lab | X-Ray Machine | MRI Machine | CT Scanner | ECG Machine | Ultrasound,Yes,Level III,6.1
PUN004,AMRUT HOSPITAL AND RESEARCH CENTER,Pune,Private,18.5289,73.8396,30,8,4,0,1,1,Cardiologist | Gastroenterologist | Trauma Surgeon | Emergency Medicine | Pulmonologist,MRI Machine | Defibrillators | Cath Lab | Ventilators | CT Scanner | Ultrasound,No,Level III,7.4
PUN005,ANAND HOSPITAL,Pune,Private,18.6203,73.798,30,8,4,0,1,0,Nephrologist | Emergency Medicine | Orthopedic Surgeon | Gastroenterologist | Radiologist,Blood Bank | CT Scanner | Defibrillators | MRI Machine | X-Ray Machine | Ventilators,Yes,Level I,14.9
PUN006,ASG Eye Hospital,Pune,Private,18.5301,73.8431,14,4,2,0,1,1,Nephrologist | Orthopedic Surgeon | Trauma Surgeon | Pulmonologist | Emergency Medicine,Defibrillators | ECG Machine | CT Scanner | Blood Bank | Cath Lab | X-Ray Machine,Yes,Level I,5.6
PUN007,ATTHARVA ACCIDENT HOSPITAL,Pune,Private,18.5269,73.8571,100,25,15,2,5,4,Emergency Medicine | Oncologist | Nephrologist | Pulmonologist | Cardiologist,ECG Machine | MRI Machine | X-Ray Machine | CT Scanner | Ventilators | Defibrillators,No,Level I,10.5
PUN008,"Aarogyam Multispeciality Hospital,Pvt,Khed,Pune",Pune,Private,18.48,73.807,55,14,8,1,2,2,Pulmonologist | Radiologist | Gastroenterologist | Oncologist | Emergency Medicine,Defibrillators | Ultrasound | Ventilators | Blood Bank | CT Scanner | X-Ray Machine,Yes,Level III,7.6
PUN009,"Aditya Birla Memorial Hospital,Chinchwad,Pune,PVT",Pune,Government,18.5217,73.8578,500,125,75,3,25,8,Neurologist | Oncologist | Nephrologist | Orthopedic Surgeon | Gastroenterologist,Ultrasound | ECG Machine | Defibrillators | Cath Lab | Ventilators | CT Scanner,Yes,Level III,11.6
PUN010,"Alephata Hospital,Junnar,Pune,Pvt",Pune,Private,18.5288,73.8423,75,19,11,4,3,0,Pulmonologist | Oncologist | Trauma Surgeon | Orthopedic Surgeon | Radiologist,Ventilators | Cath Lab | MRI Machine | Ultrasound | Dialysis Unit | ECG Machine,No,Level I,12.1
PUN011,"Anandi Multispeciality Hospital,Purandar,Pune,Pvt",Pune,Private,18.5953,73.7307,30,8,4,0,1,0,Neurologist | Nephrologist | Pulmonologist | Cardiologist | Orthopedic Surgeon,Dialysis Unit | X-Ray Machine | Ventilators | MRI Machine | Defibrillators | Ultrasound,No,Level III,13.3
PUN012,"Anushree Childrens And Multispeciality Hospital,Indapur,Pune,Pvt",Pune,Private,18.4665,73.8745,30,8,4,1,1,0,Pulmonologist | Trauma Surgeon | Orthopedic Surgeon | Nephrologist | Emergency Medicine,X-Ray Machine | Ultrasound | ECG Machine | Ventilators | CT Scanner | Blood Bank,No,Level I,10.3
PUN013,Apex Hospital,Pune,Private,18.4934,73.824,50,13,7,2,2,2,Emergency Medicine | Gastroenterologist | Trauma Surgeon | Pulmonologist | Orthopedic Surgeon,Dialysis Unit | X-Ray Machine | Cath Lab | Ultrasound | Blood Bank | CT Scanner,Yes,Level I,13.4
PUN014,"Apex Hospital,Pune City,Pvt",Pune,Private,18.6302,73.8048,45,11,6,0,2,2,Neurologist | Nephrologist | Oncologist | Pulmonologist | Radiologist,CT Scanner | ECG Machine | Cath Lab | X-Ray Machine | Dialysis Unit | Defibrillators,Yes,Level III,7.5
PUN015,"Aundh Institute of Medical Science , Aundh",Pune,Private,18.6225,73.7955,101,25,15,1,5,1,Radiologist | Oncologist | Cardiologist | Nephrologist | Gastroenterologist,ECG Machine | Dialysis Unit | Ultrasound | CT Scanner | Blood Bank | Ventilators,Yes,Level II,14.9
PUN016,BAPAT MULTISPECIALITY HOSPITAL,Pune,Private,18.4949,73.8163,33,8,4,1,1,0,Cardiologist | Emergency Medicine | Neurologist | Pulmonologist | Radiologist,Cath Lab | Dialysis Unit | ECG Machine | Defibrillators | MRI Machine | CT Scanner,Yes,Level II,10.2
PUN017,BHOSALE MULTISPECIALITY HOSPITAL,Pune,Private,18.6389,73.8045,50,13,7,0,2,0,Oncologist | Cardiologist | Nephrologist | Pulmonologist | Radiologist,Defibrillators | Ultrasound | Cath Lab | Dialysis Unit | CT Scanner | X-Ray Machine,Yes,Level I,5.9
PUN018,BHRATRATNA DR BABASAHEB AMBEDKAR CANTONMENT GENERAL HOSPITAL,Pune,Private,18.5979,73.7379,100,25,15,4,5,3,Pulmonologist | Cardiologist | Trauma Surgeon | Nephrologist | Emergency Medicine,Ventilators | CT Scanner | MRI Machine | X-Ray Machine | ECG Machine | Defibrillators,Yes,Level I,10.0
PUN019,Baramati hospitals Pvt Ltd,Pune,Private,18.5904,73.7373,120,30,18,4,6,3,Trauma Surgeon | Gastroenterologist | Radiologist | Neurologist | Nephrologist,Cath Lab | Blood Bank | ECG Machine | Ventilators | Dialysis Unit | MRI Machine,No,Level I,10.8
PUN020,Bhandare Hospital,Pune,Private,18.499,73.9175,30,8,4,1,1,0,Pulmonologist | Neurologist | Nephrologist | Radiologist | Cardiologist,Ultrasound | Ventilators | MRI Machine | CT Scanner | X-Ray Machine | Defibrillators,Yes,Level III,12.0
PUN021,Bharat Ratna Late Rajeev Gandhi Hospital,Pune,Private,18.5357,73.8463,30,8,4,1,1,0,Trauma Surgeon | Nephrologist | Neurologist | Pulmonologist | Gastroenterologist,Defibrillators | Dialysis Unit | ECG Machine | Cath Lab | Blood Bank | Ventilators,Yes,Level III,5.0
PUN022,Bharati Ayurved Hospital,Pune,Government,18.5131,73.8328,236,59,35,9,11,7,Cardiologist | Radiologist | Pulmonologist | Emergency Medicine | Orthopedic Surgeon,X-Ray Machine | Ultrasound | Defibrillators | Dialysis Unit | Blood Bank | MRI Machine,No,Level III,9.6
PUN023,Bharati Hospital and Research Center,Pune,Government,18.5069,73.8341,831,208,124,17,41,9,Neurologist | Pulmonologist | Orthopedic Surgeon | Cardiologist | Nephrologist,Cath Lab | Blood Bank | MRI Machine | CT Scanner | Ultrasound | Dialysis Unit,Yes,Level I,13.6
PUN024,"Bhigwan Medicare Hospital Pvt Ltd,Baramati,Pune,Pvt",Pune,Private,18.5286,73.8528,30,8,4,0,1,0,Nephrologist | Gastroenterologist | Cardiologist | Pulmonologist | Orthopedic Surgeon,MRI Machine | Dialysis Unit | Blood Bank | ECG Machine | Ultrasound | CT Scanner,Yes,Level I,9.7
PUN025,Bhimashakar hospital,Pune,Private,18.5144,73.8605,50,13,7,0,2,1,Nephrologist | Neurologist | Oncologist | Gastroenterologist | Pulmonologist,Defibrillators | Blood Bank | X-Ray Machine | Ultrasound | MRI Machine | CT Scanner,No,Level II,10.7
PUN026,"Bliss Multispeciality Hospital,Haveli,Pune,Pvt",Pune,Private,18.5982,73.7337,35,9,5,2,1,1,Gastroenterologist | Cardiologist | Trauma Surgeon | Oncologist | Nephrologist,ECG Machine | Blood Bank | Dialysis Unit | Ventilators | CT Scanner | Cath Lab,No,Level I,11.4
PUN027,"Bobade Accident Hopital,Baramati,Pune,Pvt",Pune,Private,18.5592,73.7714,25,6,3,0,1,1,Radiologist | Gastroenterologist | Cardiologist | Pulmonologist | Orthopedic Surgeon,ECG Machine | CT Scanner | X-Ray Machine | Dialysis Unit | Ultrasound | Ventilators,Yes,Level I,13.3
PUN028,CHAKAN CRITICARE HOSPITAL PVT LTD,Pune,Private,18.5569,73.7708,100,25,15,1,5,0,Trauma Surgeon | Oncologist | Radiologist | Gastroenterologist | Orthopedic Surgeon,Cath Lab | CT Scanner | Defibrillators | MRI Machine | Ventilators | Ultrasound,No,Level II,10.3
PUN029,CHETNA HOSPITAL,Pune,Private,18.5517,73.7895,48,12,7,0,2,0,Nephrologist | Trauma Surgeon | Orthopedic Surgeon | Cardiologist | Oncologist,Ultrasound | CT Scanner | Blood Bank | MRI Machine | Dialysis Unit | Cath Lab,Yes,Level III,9.1
PUN030,CHINTAMANI HOSPITAL RESEARCH CENTRE PVT LTD,Pune,Private,18.5165,73.8465,49,12,7,2,2,1,Radiologist | Gastroenterologist | Neurologist | Pulmonologist | Trauma Surgeon,Dialysis Unit | Ultrasound | X-Ray Machine | MRI Machine | Defibrillators | Cath Lab,Yes,Level II,9.5
PUN031,CHIRAYU CHILDERNS HOSPITAL,Pune,Private,18.5358,73.8533,30,8,4,0,1,0,Emergency Medicine | Gastroenterologist | Neurologist | Cardiologist | Nephrologist,Defibrillators | MRI Machine | Cath Lab | Dialysis Unit | Ultrasound | CT Scanner,Yes,Level II,13.9
PUN032,Care And Cure Multispeciality Hospital and Diagnostic Center,Pune,Private,18.5145,73.8468,35,9,5,1,1,1,Gastroenterologist | Emergency Medicine | Neurologist | Oncologist | Trauma Surgeon,Ultrasound | Defibrillators | Blood Bank | MRI Machine | X-Ray Machine | ECG Machine,Yes,Level I,8.1
PUN033,Care Multispec Iality Hospital,Pune,Private,18.639,73.799,31,8,4,1,1,0,Oncologist | Orthopedic Surgeon | Trauma Surgeon | Radiologist | Nephrologist,Ventilators | Cath Lab | X-Ray Machine | Defibrillators | Blood Bank | MRI Machine,No,Level III,10.6
PUN034,Care Multispecialty hospital,Pune,Private,18.5061,73.9231,50,13,7,0,2,1,Cardiologist | Trauma Surgeon | Radiologist | Emergency Medicine | Gastroenterologist,X-Ray Machine | Ventilators | Blood Bank | Defibrillators | Cath Lab | Dialysis Unit,Yes,Level III,7.9
PUN035,Chandumama Sonawane Maternity Home,Pune,Private,18.5684,73.9238,80,20,12,4,4,0,Pulmonologist | Trauma Surgeon | Radiologist | Nephrologist | Emergency Medicine,MRI Machine | Defibrillators | Ventilators | Dialysis Unit | ECG Machine | Ultrasound,No,Level II,9.6
PUN036,DECCAN HARDIKAR HOSPITAL,Pune,Private,18.573,73.9076,120,30,18,5,6,2,Emergency Medicine | Pulmonologist | Radiologist | Cardiologist | Orthopedic Surgeon,Ultrasound | CT Scanner | Defibrillators | ECG Machine | MRI Machine | Blood Bank,Yes,Level II,5.2
PUN037,DEOYANI MULTISPECIALITY HOSPITAL,Pune,Private,18.5553,73.7769,120,30,18,1,6,4,Trauma Surgeon | Neurologist | Gastroenterologist | Oncologist | Radiologist,Ultrasound | Defibrillators | Dialysis Unit | Blood Bank | X-Ray Machine | ECG Machine,No,Level III,12.0
PUN038,"DHANWANTARI HOSPITAL AND CRITICARE CENTER,Purandhar,Pune,Pvt",Pune,Private,18.5075,73.8435,30,8,4,0,1,1,Cardiologist | Orthopedic Surgeon | Neurologist | Oncologist | Emergency Medicine,X-Ray Machine | ECG Machine | Dialysis Unit | Cath Lab | Blood Bank | Defibrillators,Yes,Level III,12.8
PUN039,"DR KARDILE ACCIDENT HOSPITAL, INDAPUR",Pune,Private,18.5648,73.7737,10,3,2,0,1,0,Oncologist | Trauma Surgeon | Orthopedic Surgeon | Nephrologist | Cardiologist,MRI Machine | Ultrasound | ECG Machine | Cath Lab | Dialysis Unit | Blood Bank,No,Level I,8.2
PUN040,DR.BHAGAT BALRUGNALAYA AND DIAGNOSTIC CENTER,Pune,Private,18.5287,73.8648,25,6,3,0,1,0,Oncologist | Cardiologist | Pulmonologist | Orthopedic Surgeon | Radiologist,X-Ray Machine | MRI Machine | Cath Lab | Dialysis Unit | CT Scanner | Ventilators,No,Level II,7.6
PUN041,"DR.D.Y.PATIL COLLAGE OF AYURVED AND RESEARCH CENTRE,PUNE, CITY,PVT.",Pune,Private,18.5201,73.866,100,25,15,4,5,4,Neurologist | Oncologist | Radiologist | Orthopedic Surgeon | Gastroenterologist,Ultrasound | MRI Machine | Blood Bank | CT Scanner | ECG Machine | Dialysis Unit,No,Level III,7.8
PUN042,DR.KHADE SUPERSPECIALITY HOSPITAL CHAKAN,Pune,Private,18.5279,73.8639,50,13,7,1,2,1,Pulmonologist | Trauma Surgeon | Nephrologist | Radiologist | Orthopedic Surgeon,Cath Lab | MRI Machine | Ventilators | Ultrasound | X-Ray Machine | Dialysis Unit,Yes,Level I,14.3
PUN043,Dalvi Hospital,Pune,Private,18.5219,73.8363,30,8,4,0,1,0,Neurologist | Cardiologist | Trauma Surgeon | Radiologist | Emergency Medicine,CT Scanner | Ultrasound | Ventilators | MRI Machine | ECG Machine | Defibrillators,Yes,Level I,5.5
PUN044,"Delight Hospital,ShirurPune,Pvt",Pune,Private,18.5654,73.777,45,11,6,0,2,2,Cardiologist | Emergency Medicine | Nephrologist | Neurologist | Gastroenterologist,Ultrasound | Cath Lab | Ventilators | MRI Machine | Blood Bank | Defibrillators,Yes,Level III,11.3
PUN045,"Dhakne Hospital,Pune",Pune,Private,18.4819,73.8193,30,8,4,0,1,0,Oncologist | Emergency Medicine | Cardiologist | Gastroenterologist | Pulmonologist,Ventilators | X-Ray Machine | Blood Bank | ECG Machine | MRI Machine | Dialysis Unit,Yes,Level III,6.9
PUN046,District Hospital Pune,Pune,Government,18.476,73.82,300,75,45,8,15,0,Oncologist | Cardiologist | Neurologist | Orthopedic Surgeon | Radiologist,Blood Bank | Defibrillators | Ultrasound | X-Ray Machine | ECG Machine | Dialysis Unit,Yes,Level III,12.9
PUN047,Dr Bhausaheb Sardesai Talegaon Rural Hospital,Pune,Government,18.5672,73.7785,570,143,85,4,28,3,Oncologist | Cardiologist | Emergency Medicine | Orthopedic Surgeon | Gastroenterologist,Ultrasound | ECG Machine | MRI Machine | Blood Bank | Ventilators | Cath Lab,No,Level III,6.0
PUN048,Dr Manohar Dole Medical Foundations Galaxy Eye Hospital,Pune,Private,18.5814,73.7398,25,6,3,0,1,1,Oncologist | Nephrologist | Cardiologist | Emergency Medicine | Gastroenterologist,Cath Lab | Blood Bank | Dialysis Unit | X-Ray Machine | CT Scanner | MRI Machine,Yes,Level II,7.6
PUN049,"Dr Todkar Hospital,Pune,Pvt",Pune,Private,18.5225,73.8482,34,9,5,1,1,0,Neurologist | Orthopedic Surgeon | Oncologist | Nephrologist | Emergency Medicine,Blood Bank | Ventilators | Cath Lab | CT Scanner | MRI Machine | Ultrasound,Yes,Level II,12.5
PUN050,Dr.Mate Hospital,Pune,Private,18.483,73.8054,30,8,4,1,1,1,Neurologist | Emergency Medicine | Gastroenterologist | Cardiologist | Orthopedic Surgeon,Ventilators | Cath Lab | Ultrasound | Blood Bank | X-Ray Machine | ECG Machine,No,Level III,12.1
PUN051,GUNJKAR MULTISPECIALITY,Pune,Private,18.5078,73.8412,65,16,9,2,3,3,Gastroenterologist | Orthopedic Surgeon | Radiologist | Trauma Surgeon | Cardiologist,Ventilators | Dialysis Unit | ECG Machine | MRI Machine | X-Ray Machine | CT Scanner,No,Level II,6.1
PUN052,"Gawade Multispeciality Hospital,Khed,Pune,PVT",Pune,Private,18.5577,73.7711,44,11,6,0,2,1,Trauma Surgeon | Cardiologist | Gastroenterologist | Emergency Medicine | Radiologist,ECG Machine | Ventilators | Defibrillators | MRI Machine | Ultrasound | CT Scanner,No,Level II,11.3
PUN053,Get Well Multispeciality Hospital,Pune,Private,18.5158,73.916,60,15,9,0,3,3,Cardiologist | Oncologist | Radiologist | Emergency Medicine | Nephrologist,Defibrillators | MRI Machine | Blood Bank | ECG Machine | CT Scanner | Ventilators,Yes,Level II,9.8
PUN054,"Government Medical College and Hospital ,Baramati ,Pune, Govt",Pune,Government,18.4842,73.8202,536,134,80,23,26,23,Neurologist | Nephrologist | Oncologist | Gastroenterologist | Emergency Medicine,Ventilators | ECG Machine | MRI Machine | Dialysis Unit | Defibrillators | Blood Bank,No,Level II,7.0
PUN055,"H.B.P. Prabhakar Malharrao Kute Memorial Hospital,Akurdi",Pune,Private,18.565,73.7834,100,25,15,1,5,4,Gastroenterologist | Pulmonologist | Emergency Medicine | Oncologist | Orthopedic Surgeon,CT Scanner | Cath Lab | Dialysis Unit | Defibrillators | Ultrasound | MRI Machine,No,Level III,5.6
PUN056,HARSH MULTISPECIALITY HOSPITAL,Pune,Private,18.5257,73.8647,30,8,4,0,1,1,Oncologist | Nephrologist | Pulmonologist | Neurologist | Cardiologist,X-Ray Machine | Blood Bank | Ventilators | Cath Lab | Dialysis Unit | CT Scanner,Yes,Level III,12.0
PUN057,HRIDAYA MULTISPECIALITY HOSPITAL,Pune,Private,18.4613,73.8693,35,9,5,2,1,0,Pulmonologist | Neurologist | Orthopedic Surgeon | Nephrologist | Emergency Medicine,ECG Machine | Ventilators | CT Scanner | MRI Machine | X-Ray Machine | Ultrasound,Yes,Level I,6.0
PUN058,HSHC LLPs OMKAR HOSPITAL,Pune,Private,18.5039,73.9206,30,8,4,0,1,0,Oncologist | Emergency Medicine | Cardiologist | Orthopedic Surgeon | Pulmonologist,X-Ray Machine | Dialysis Unit | Cath Lab | CT Scanner | Defibrillators | MRI Machine,Yes,Level III,14.9
PUN059,INDRESHWAR SUPER SPECIALITY HOSPITAL PVT.LTD,Pune,Private,18.5826,73.7325,35,9,5,1,1,1,Pulmonologist | Neurologist | Oncologist | Trauma Surgeon | Nephrologist,Ventilators | Defibrillators | CT Scanner | Blood Bank | MRI Machine | Dialysis Unit,No,Level I,5.9
PUN060,"Indian Institute of Metabolic Sciences & Dr. Todkar Multispecialty Hospital (A Joint Venture of PMC and JT Foundation),Pune,PVT",Pune,Government,18.631,73.8097,150,38,22,5,7,6,Nephrologist | Cardiologist | Neurologist | Orthopedic Surgeon | Pulmonologist,ECG Machine | MRI Machine | Cath Lab | Defibrillators | X-Ray Machine | Ultrasound,Yes,Level III,9.3
PUN061,Indrayani Hospital & Cancer Institute,Pune,Private,18.5816,73.7445,0,0,2,0,1,0,Neurologist | Radiologist | Gastroenterologist | Orthopedic Surgeon | Pulmonologist,Defibrillators | Cath Lab | X-Ray Machine | Ultrasound | ECG Machine | CT Scanner,No,Level I,5.1
PUN062,"Integrated Cancer Treatment & Research Centre , Wagholi",Pune,Private,18.5689,73.779,50,13,7,0,2,2,Pulmonologist | Cardiologist | Nephrologist | Trauma Surgeon | Gastroenterologist,ECG Machine | Ultrasound | Cath Lab | Ventilators | Defibrillators | Dialysis Unit,Yes,Level I,13.2
PUN063,"Isha Eye Care Pvt Ltd,Pune City,Pune,Pvt",Pune,Private,18.456,73.8687,10,3,2,0,1,0,Neurologist | Oncologist | Radiologist | Orthopedic Surgeon | Nephrologist,Cath Lab | Dialysis Unit | MRI Machine | CT Scanner | X-Ray Machine | Defibrillators,Yes,Level I,14.2
PUN064,J S HOSPITAL,Pune,Private,18.5226,73.8543,32,8,4,0,1,0,Radiologist | Trauma Surgeon | Emergency Medicine | Cardiologist | Gastroenterologist,Cath Lab | ECG Machine | X-Ray Machine | Ventilators | Ultrasound | Defibrillators,No,Level III,5.9
PUN065,"JIJAMATA HOSPITAL, PIMPRI",Pune,Private,18.4599,73.8627,130,33,19,7,6,3,Trauma Surgeon | Cardiologist | Gastroenterologist | Radiologist | Neurologist,Defibrillators | CT Scanner | Ultrasound | MRI Machine | Cath Lab | Dialysis Unit,Yes,Level II,10.5
PUN066,Jaihind Super Speciality Hospital,Pune,Private,18.5952,73.7438,51,13,7,2,2,2,Gastroenterologist | Cardiologist | Nephrologist | Oncologist | Pulmonologist,CT Scanner | ECG Machine | Ventilators | Blood Bank | Defibrillators | X-Ray Machine,No,Level III,14.6
PUN067,Janseva foundation govindrao dhapre rural hospital,Pune,Private,18.5184,73.8583,100,25,15,6,5,2,Pulmonologist | Neurologist | Orthopedic Surgeon | Emergency Medicine | Nephrologist,X-Ray Machine | MRI Machine | Ultrasound | ECG Machine | Ventilators | CT Scanner,Yes,Level III,12.1
PUN068,"Jeevanjyoti Hospital, Pune",Pune,Private,18.5777,73.9071,110,28,16,1,5,1,Gastroenterologist | Neurologist | Nephrologist | Orthopedic Surgeon | Emergency Medicine,ECG Machine | Ventilators | CT Scanner | Dialysis Unit | Cath Lab | X-Ray Machine,No,Level III,14.4
PUN069,Jivanrekha Multispeciality Hospital Pvt Ltd,Pune,Private,18.4577,73.8619,50,13,7,2,2,1,Trauma Surgeon | Neurologist | Orthopedic Surgeon | Gastroenterologist | Oncologist,ECG Machine | MRI Machine | CT Scanner | Ultrasound | Ventilators | Cath Lab,Yes,Level I,12.7
PUN070,"Jupiter Lifeline Hospitals Ltd,Haveli,Pune,Pvt",Pune,Government,18.4772,73.8068,400,100,60,15,20,5,Trauma Surgeon | Pulmonologist | Oncologist | Radiologist | Gastroenterologist,MRI Machine | X-Ray Machine | Ultrasound | Blood Bank | Cath Lab | Ventilators,Yes,Level III,11.6
PUN071,Kamla Nehru Hospital Pune,Pune,Government,18.4484,73.8629,350,88,52,16,17,2,Gastroenterologist | Emergency Medicine | Radiologist | Pulmonologist | Cardiologist,Defibrillators | MRI Machine | Cath Lab | CT Scanner | Ultrasound | ECG Machine,Yes,Level II,12.6
PUN072,"Khavte Accident & Ortho Hospital,Daund,Pune,Pvt",Pune,Private,18.4636,73.8675,30,8,4,1,1,1,Trauma Surgeon | Emergency Medicine | Nephrologist | Cardiologist | Neurologist,CT Scanner | MRI Machine | Ultrasound | Defibrillators | Dialysis Unit | X-Ray Machine,No,Level I,12.7
PUN073,Kohakade Superspeciality Hospital,Pune,Private,18.5183,73.8407,30,8,4,1,1,1,Gastroenterologist | Pulmonologist | Oncologist | Trauma Surgeon | Orthopedic Surgeon,Ultrasound | Defibrillators | ECG Machine | CT Scanner | Blood Bank | X-Ray Machine,No,Level I,11.8
PUN074,"Krantijyoti savitribai phule Talera hospital chinchwad,Haveli,Pune,Govt",Pune,Private,18.5083,73.9165,80,20,12,0,4,4,Neurologist | Gastroenterologist | Pulmonologist | Emergency Medicine | Oncologist,Ventilators | Blood Bank | ECG Machine | Cath Lab | Ultrasound | Dialysis Unit,Yes,Level I,14.4
PUN075,Kulkarni Medical Foundation Pyramid Hospital,Pune,Private,18.5014,73.9259,100,25,15,4,5,4,Gastroenterologist | Emergency Medicine | Radiologist | Orthopedic Surgeon | Oncologist,X-Ray Machine | Defibrillators | Blood Bank | Ultrasound | Cath Lab | ECG Machine,Yes,Level III,8.7
PUN076,LIFECARE MULTISPECIALITY HOSPITAL,Pune,Private,18.4994,73.9249,20,5,3,1,1,1,Cardiologist | Emergency Medicine | Nephrologist | Orthopedic Surgeon | Oncologist,Blood Bank | Ultrasound | Defibrillators | X-Ray Machine | Dialysis Unit | Cath Lab,Yes,Level III,5.2
PUN077,"LIFEPOINT MULTISPECILAITY HOSPITAL,WAKAD,PUNE",Pune,Private,18.5047,73.8344,100,25,15,0,5,1,Oncologist | Emergency Medicine | Cardiologist | Orthopedic Surgeon | Neurologist,CT Scanner | MRI Machine | Ventilators | Blood Bank | ECG Machine | Cath Lab,Yes,Level III,8.0
PUN078,Lifeline Multispeciality Hospital,Pune,Private,18.5612,73.7828,40,10,6,2,2,2,Nephrologist | Trauma Surgeon | Neurologist | Radiologist | Cardiologist,Dialysis Unit | Ultrasound | Defibrillators | Ventilators | ECG Machine | MRI Machine,Yes,Level III,6.5
PUN079,Lokmanya Hospital Chinchwad,Pune,Private,18.4864,73.8223,104,26,15,5,5,0,Orthopedic Surgeon | Oncologist | Nephrologist | Gastroenterologist | Pulmonologist,Ultrasound | Defibrillators | Blood Bank | Ventilators | X-Ray Machine | CT Scanner,Yes,Level III,5.0
PUN080,MAHAVIR HOSPITAL,Pune,Private,18.4878,73.8101,37,9,5,1,1,1,Trauma Surgeon | Pulmonologist | Nephrologist | Cardiologist | Emergency Medicine,Ultrasound | Defibrillators | MRI Machine | Ventilators | Blood Bank | ECG Machine,No,Level II,10.9
PUN081,MAULINATH HOSPITAL,Pune,Private,18.4879,73.8231,30,8,4,1,1,0,Emergency Medicine | Orthopedic Surgeon | Radiologist | Nephrologist | Oncologist,ECG Machine | Ultrasound | Blood Bank | X-Ray Machine | MRI Machine | Ventilators,Yes,Level II,13.0
PUN082,MAXCARE MULTISPECIALITY HOSPITAL,Pune,Private,18.5374,73.8495,30,8,4,0,1,0,Nephrologist | Neurologist | Pulmonologist | Gastroenterologist | Radiologist,Cath Lab | CT Scanner | X-Ray Machine | Ventilators | MRI Machine | ECG Machine,No,Level I,5.9
PUN083,MH ESI Society Hospital,Pune,Private,18.5977,73.7341,100,25,15,3,5,4,Cardiologist | Radiologist | Pulmonologist | Orthopedic Surgeon | Emergency Medicine,ECG Machine | Blood Bank | MRI Machine | Ultrasound | Cath Lab | Dialysis Unit,Yes,Level II,5.2
PUN084,MMKR HEALTHCARE PVT.LTD KASTURBA SPECIALITY HOSPITAL,Pune,Private,18.5291,73.8492,35,9,5,0,1,1,Radiologist | Trauma Surgeon | Pulmonologist | Nephrologist | Cardiologist,Defibrillators | ECG Machine | Cath Lab | Ventilators | CT Scanner | Dialysis Unit,No,Level III,7.6
PUN085,MORYA HOSPITAL,Pune,Private,18.4782,73.809,20,5,3,1,1,0,Radiologist | Orthopedic Surgeon | Pulmonologist | Cardiologist | Neurologist,Ultrasound | Cath Lab | CT Scanner | Dialysis Unit | X-Ray Machine | ECG Machine,Yes,Level III,11.5
PUN086,Mahalaxmi Hospital,Pune,Private,18.5177,73.8496,75,19,11,4,3,1,Gastroenterologist | Trauma Surgeon | Neurologist | Cardiologist | Emergency Medicine,Ventilators | Cath Lab | Blood Bank | Dialysis Unit | ECG Machine | X-Ray Machine,Yes,Level III,11.8
PUN087,Manikchand Narayandas Dugad Hospital,Pune,Private,18.5579,73.777,100,25,15,4,5,0,Nephrologist | Cardiologist | Trauma Surgeon | Emergency Medicine | Gastroenterologist,ECG Machine | Blood Bank | MRI Machine | Dialysis Unit | Ultrasound | Ventilators,Yes,Level II,9.1
PUN088,"Matoshree Madanbai Dhariwal Hospital,Shirur,Pune,Pvt",Pune,Private,18.5162,73.8457,50,13,7,1,2,2,Orthopedic Surgeon | Oncologist | Trauma Surgeon | Nephrologist | Radiologist,X-Ray Machine | Ventilators | Defibrillators | Ultrasound | ECG Machine | MRI Machine,Yes,Level II,12.9
PUN089,"Mauli Hospitral,Shirur,Pune,Pvt",Pune,Private,18.467,73.8608,35,9,5,0,1,1,Gastroenterologist | Cardiologist | Emergency Medicine | Pulmonologist | Nephrologist,Blood Bank | MRI Machine | X-Ray Machine | ECG Machine | Cath Lab | Defibrillators,Yes,Level III,13.3
PUN090,"Mehta Hospital,Baramati,Pune,Pvt",Pune,Private,18.5591,73.7699,60,15,9,1,3,2,Cardiologist | Neurologist | Radiologist | Gastroenterologist | Orthopedic Surgeon,ECG Machine | Blood Bank | MRI Machine | X-Ray Machine | Ultrasound | CT Scanner,No,Level I,9.6
PUN091,Morya Multispecialty Hospital,Pune,Private,18.5577,73.7781,50,13,7,0,2,2,Orthopedic Surgeon | Nephrologist | Oncologist | Cardiologist | Radiologist,Cath Lab | Defibrillators | Ventilators | MRI Machine | ECG Machine | CT Scanner,No,Level I,11.5
PUN092,NEW LIFE AYURVEDIC HOSPITAL,Pune,Private,18.5105,73.8625,100,25,15,5,5,4,Emergency Medicine | Pulmonologist | Radiologist | Gastroenterologist | Trauma Surgeon,Ultrasound | CT Scanner | Dialysis Unit | ECG Machine | Defibrillators | Cath Lab,No,Level III,9.3
PUN093,"NIRAMAYA SUPER SPECIALITY HOSPITAL AND CANCER CENTRE, PUNE",Pune,Private,18.6343,73.8068,60,15,9,1,3,0,Nephrologist | Neurologist | Cardiologist | Trauma Surgeon | Pulmonologist,Ultrasound | Blood Bank | CT Scanner | X-Ray Machine | Dialysis Unit | MRI Machine,Yes,Level II,9.3
PUN094,Naidu Hospital,Pune,Private,18.5963,73.7361,100,25,15,3,5,1,Oncologist | Trauma Surgeon | Emergency Medicine | Radiologist | Orthopedic Surgeon,Defibrillators | Ventilators | X-Ray Machine | CT Scanner | Cath Lab | Ultrasound,No,Level I,8.6
PUN095,New Bhosari Hospital,Pune,Private,18.568,73.7885,100,25,15,6,5,3,Nephrologist | Emergency Medicine | Pulmonologist | Neurologist | Gastroenterologist,Ultrasound | CT Scanner | Defibrillators | Dialysis Unit | Cath Lab | MRI Machine,No,Level III,14.5
PUN096,"New Thergaon Hospital, Pune",Pune,Government,18.5626,73.775,200,50,30,6,10,1,Nephrologist | Orthopedic Surgeon | Trauma Surgeon | Emergency Medicine | Neurologist,X-Ray Machine | Defibrillators | ECG Machine | MRI Machine | Dialysis Unit | Ultrasound,No,Level II,9.5
PUN097,Niramaya Hospital Pvt. Ltd,Pune,Private,18.4804,73.8065,110,28,16,1,5,0,Pulmonologist | Trauma Surgeon | Neurologist | Oncologist | Nephrologist,ECG Machine | X-Ray Machine | Ultrasound | Defibrillators | CT Scanner | MRI Machine,No,Level II,7.5
PUN098,Niramaya medical foundation and research centre pvt ltd,Pune,Private,18.5674,73.7729,50,13,7,0,2,2,Oncologist | Orthopedic Surgeon | Pulmonologist | Trauma Surgeon | Nephrologist,Ventilators | Defibrillators | ECG Machine | Blood Bank | Ultrasound | Cath Lab,No,Level I,13.1
PUN099,Nityaseva Multispeciality Hospital,Pune,Private,18.5582,73.9073,30,8,4,1,1,0,Trauma Surgeon | Neurologist | Radiologist | Gastroenterologist | Cardiologist,Dialysis Unit | CT Scanner | ECG Machine | X-Ray Machine | Ultrasound | Blood Bank,No,Level I,11.3
PUN100,OM ACCIDENT AND MULTISPECIALITY HOSPITAL,Pune,Private,18.465,73.8765,30,8,4,0,1,0,Orthopedic Surgeon | Radiologist | Oncologist | Pulmonologist | Nephrologist,CT Scanner | Dialysis Unit | X-Ray Machine | ECG Machine | MRI Machine | Ventilators,No,Level III,11.4
PUN101,OMKAR HOSPITAL,Pune,Private,18.4796,73.8102,30,8,4,1,1,0,Orthopedic Surgeon | Oncologist | Cardiologist | Radiologist | Pulmonologist,CT Scanner | X-Ray Machine | Blood Bank | Dialysis Unit | Cath Lab | Ultrasound,Yes,Level II,12.4
PUN102,"ONKAR MULTISPECAILITY HOSPITAL, PUNE",Pune,Private,18.639,73.8046,30,8,4,1,1,1,Neurologist | Cardiologist | Oncologist | Radiologist | Trauma Surgeon,Defibrillators | Ventilators | CT Scanner | MRI Machine | X-Ray Machine | Dialysis Unit,No,Level III,13.3
PUN103,OYSTER AND PEARL HOSPITALS,Pune,Private,18.4852,73.8084,100,25,15,0,5,1,Cardiologist | Nephrologist | Orthopedic Surgeon | Radiologist | Pulmonologist,Blood Bank | ECG Machine | Dialysis Unit | X-Ray Machine | CT Scanner | Ultrasound,No,Level I,10.0
PUN104,Om Chaitanya Hospital,Pune,Private,18.5931,73.7427,60,15,9,0,3,3,Gastroenterologist | Cardiologist | Radiologist | Pulmonologist | Oncologist,Dialysis Unit | Blood Bank | MRI Machine | Cath Lab | Defibrillators | X-Ray Machine,No,Level II,14.7
PUN105,Om Hospital,Pune,Private,18.6316,73.8004,80,20,12,3,4,1,Gastroenterologist | Trauma Surgeon | Emergency Medicine | Orthopedic Surgeon | Nephrologist,Ultrasound | X-Ray Machine | Cath Lab | MRI Machine | Dialysis Unit | Defibrillators,No,Level I,13.2
PUN106,"Onco-Life Cancer Centre Pvt. Ltd.Mawal,Pune",Pune,Private,18.5753,73.9183,30,8,4,1,1,1,Cardiologist | Neurologist | Radiologist | Orthopedic Surgeon | Oncologist,Dialysis Unit | Blood Bank | Ultrasound | CT Scanner | MRI Machine | ECG Machine,No,Level I,6.3
PUN107,PBMAs H V DESAI EYE HOSPITAL,Pune,Private,18.5858,73.7487,100,25,15,0,5,1,Radiologist | Pulmonologist | Nephrologist | Neurologist | Emergency Medicine,X-Ray Machine | Ultrasound | Ventilators | CT Scanner | MRI Machine | ECG Machine,No,Level I,9.8
PUN108,PRIME MULTISPECIALITY HOSPITAL,Pune,Private,18.6236,73.7994,39,10,5,1,1,0,Nephrologist | Orthopedic Surgeon | Gastroenterologist | Neurologist | Radiologist,Dialysis Unit | X-Ray Machine | Defibrillators | Ventilators | CT Scanner | Cath Lab,No,Level III,14.3
PUN109,"Padm. Dr. D. Y. Patil Medical College,Hospital & Research Centre, PImpri, Pune - 18.",Pune,Government,18.5111,73.8502,1300,325,195,58,65,4,Orthopedic Surgeon | Nephrologist | Oncologist | Cardiologist | Radiologist,MRI Machine | Ultrasound | Defibrillators | ECG Machine | Cath Lab | Dialysis Unit,Yes,Level III,11.6
PUN110,Pawana Hospital,Pune,Private,18.5096,73.9307,100,25,15,2,5,4,Orthopedic Surgeon | Nephrologist | Pulmonologist | Neurologist | Trauma Surgeon,Dialysis Unit | Defibrillators | Blood Bank | Ultrasound | Cath Lab | CT Scanner,No,Level III,7.8
PUN111,Pawar Multispeciality Hospital & Diagnostic Centre Pvt. Ltd.,Pune,Private,18.5673,73.909,30,8,4,1,1,1,Oncologist | Gastroenterologist | Trauma Surgeon | Nephrologist | Orthopedic Surgeon,MRI Machine | Cath Lab | CT Scanner | Dialysis Unit | ECG Machine | Ventilators,No,Level II,5.4
PUN112,Pioneer Hospital,Pune,Private,18.5615,73.914,50,13,7,1,2,2,Oncologist | Trauma Surgeon | Orthopedic Surgeon | Emergency Medicine | Radiologist,ECG Machine | MRI Machine | Ultrasound | X-Ray Machine | Blood Bank | Defibrillators,No,Level I,6.5
PUN113,Pushpalata D Y Patil Hospital,Pune,Government,18.5893,73.7363,650,163,97,22,32,29,Neurologist | Cardiologist | Trauma Surgeon | Emergency Medicine | Radiologist,ECG Machine | CT Scanner | Ventilators | MRI Machine | Blood Bank | Defibrillators,No,Level III,6.3
PUN114,RH Junner,Pune,Private,18.477,73.816,30,8,4,1,1,0,Pulmonologist | Nephrologist | Trauma Surgeon | Emergency Medicine | Radiologist,Dialysis Unit | Defibrillators | Ventilators | MRI Machine | CT Scanner | Cath Lab,No,Level III,7.7
PUN115,RH Alandi,Pune,Private,18.622,73.8087,30,8,4,0,1,0,Oncologist | Cardiologist | Nephrologist | Radiologist | Trauma Surgeon,Blood Bank | MRI Machine | Ventilators | Dialysis Unit | X-Ray Machine | CT Scanner,Yes,Level III,7.3
PUN116,"RH Chandoli,Govt,Pune",Pune,Private,18.4997,73.9217,30,8,4,0,1,1,Gastroenterologist | Orthopedic Surgeon | Cardiologist | Radiologist | Nephrologist,CT Scanner | Ventilators | Dialysis Unit | MRI Machine | X-Ray Machine | Blood Bank,Yes,Level II,14.1
PUN117,RH Ghodegaon,Pune,Private,18.5355,73.856,30,8,4,1,1,0,Cardiologist | Nephrologist | Trauma Surgeon | Gastroenterologist | Orthopedic Surgeon,ECG Machine | Cath Lab | MRI Machine | Dialysis Unit | Blood Bank | CT Scanner,No,Level II,15.0
PUN118,RH Narayangaon,Pune,Private,18.5843,73.747,100,25,15,2,5,3,Cardiologist | Neurologist | Emergency Medicine | Pulmonologist | Radiologist,Cath Lab | X-Ray Machine | Blood Bank | ECG Machine | Ultrasound | CT Scanner,Yes,Level II,10.7
PUN119,RH Nimgaon Ketki,Pune,Private,18.5625,73.9182,30,8,4,1,1,1,Emergency Medicine | Pulmonologist | Trauma Surgeon | Cardiologist | Gastroenterologist,CT Scanner | X-Ray Machine | Ultrasound | ECG Machine | Cath Lab | Dialysis Unit,Yes,Level III,5.7
PUN120,RH Paud,Pune,Private,18.4489,73.8741,30,8,4,1,1,1,Emergency Medicine | Oncologist | Radiologist | Gastroenterologist | Nephrologist,Ventilators | Defibrillators | X-Ray Machine | Ultrasound | MRI Machine | CT Scanner,Yes,Level II,5.3
PUN121,RH Rui,Pune,Private,18.621,73.8089,30,8,4,0,1,1,Gastroenterologist | Orthopedic Surgeon | Neurologist | Emergency Medicine | Radiologist,Blood Bank | MRI Machine | X-Ray Machine | Ultrasound | Defibrillators | Ventilators,No,Level I,13.3
PUN122,RH Saswad,Pune,Private,18.5121,73.8506,30,8,4,0,1,1,Emergency Medicine | Pulmonologist | Orthopedic Surgeon | Trauma Surgeon | Oncologist,X-Ray Machine | Ventilators | Cath Lab | CT Scanner | Defibrillators | MRI Machine,Yes,Level II,7.0
PUN123,"RH Shikrapur,Shirur,Pune,Govt",Pune,Private,18.4549,73.8653,30,8,4,1,1,1,Orthopedic Surgeon | Oncologist | Radiologist | Gastroenterologist | Nephrologist,X-Ray Machine | Cath Lab | ECG Machine | MRI Machine | Blood Bank | Ultrasound,No,Level III,13.7
PUN124,RH Shirur,Pune,Private,18.4526,73.876,30,8,4,1,1,1,Trauma Surgeon | Pulmonologist | Oncologist | Radiologist | Nephrologist,Blood Bank | Ultrasound | CT Scanner | X-Ray Machine | Ventilators | Cath Lab,Yes,Level II,14.8
PUN125,"RH Supa,Govt,Pune",Pune,Private,18.5705,73.9236,30,8,4,1,1,1,Oncologist | Emergency Medicine | Orthopedic Surgeon | Gastroenterologist | Radiologist,CT Scanner | Cath Lab | Blood Bank | Defibrillators | Dialysis Unit | Ventilators,Yes,Level I,13.8
PUN126,RH Velhe,Pune,Private,18.5107,73.9291,30,8,4,0,1,1,Nephrologist | Emergency Medicine | Neurologist | Radiologist | Orthopedic Surgeon,Blood Bank | ECG Machine | CT Scanner | Ventilators | Defibrillators | X-Ray Machine,No,Level I,5.3
PUN127,"RH Yawat,Govt,Pune",Pune,Private,18.5739,73.9235,30,8,4,0,1,1,Radiologist | Trauma Surgeon | Cardiologist | Emergency Medicine | Pulmonologist,Defibrillators | Cath Lab | Dialysis Unit | X-Ray Machine | Ultrasound | Ventilators,No,Level II,8.9
PUN128,Rajveer Health Services Pvt Ltd.Phoenix Hospital,Pune,Private,18.4766,73.8116,48,12,7,1,2,1,Radiologist | Trauma Surgeon | Nephrologist | Cardiologist | Oncologist,Defibrillators | Ultrasound | Ventilators | Dialysis Unit | Cath Lab | CT Scanner,Yes,Level II,7.8
PUN129,Regional Mental Hospital Pune,Pune,Government,18.5129,73.859,2540,635,381,25,127,54,Radiologist | Emergency Medicine | Pulmonologist | Nephrologist | Trauma Surgeon,Dialysis Unit | Cath Lab | MRI Machine | Ultrasound | Ventilators | Defibrillators,No,Level III,9.0
PUN130,Rural Hospital Chakan,Pune,Private,18.5296,73.8568,30,8,4,1,1,1,Orthopedic Surgeon | Pulmonologist | Radiologist | Neurologist | Trauma Surgeon,Cath Lab | Ultrasound | Defibrillators | ECG Machine | Blood Bank | MRI Machine,Yes,Level II,5.6
PUN131,Rural Hospital Jejuri,Pune,Private,18.4593,73.8602,30,8,4,1,1,1,Gastroenterologist | Cardiologist | Pulmonologist | Radiologist | Trauma Surgeon,Dialysis Unit | Defibrillators | Cath Lab | Ventilators | Blood Bank | MRI Machine,Yes,Level III,13.1
PUN132,Rural Hospital Kale Colony,Pune,Private,18.4891,73.8116,30,8,4,0,1,0,Nephrologist | Gastroenterologist | Cardiologist | Emergency Medicine | Pulmonologist,Ultrasound | ECG Machine | Ventilators | Cath Lab | CT Scanner | Defibrillators,No,Level III,13.6
PUN133,Rural Hospital Nhavra,Pune,Private,18.4526,73.8758,30,8,4,0,1,0,Radiologist | Gastroenterologist | Pulmonologist | Orthopedic Surgeon | Emergency Medicine,ECG Machine | Blood Bank | Cath Lab | Defibrillators | CT Scanner | Ultrasound,No,Level II,13.9
PUN134,Rural Hospital Wadgaon Maval,Pune,Private,18.5572,73.7809,30,8,4,0,1,1,Radiologist | Emergency Medicine | Neurologist | Gastroenterologist | Orthopedic Surgeon,Defibrillators | Blood Bank | Ultrasound | CT Scanner | ECG Machine | Dialysis Unit,Yes,Level III,8.1
PUN135,SAARATHI MULTISPECIALITY HOSPITAL,Pune,Private,18.5891,73.7336,60,15,9,3,3,0,Oncologist | Cardiologist | Trauma Surgeon | Neurologist | Pulmonologist,Blood Bank | Ventilators | Defibrillators | Cath Lab | X-Ray Machine | CT Scanner,Yes,Level II,5.0
PUN136,"SAI MATERNITY AND GENERAL HOSPITAL, SHIKRAPUR",Pune,Private,18.4798,73.8149,35,9,5,2,1,1,Radiologist | Emergency Medicine | Pulmonologist | Orthopedic Surgeon | Gastroenterologist,X-Ray Machine | Ultrasound | Blood Bank | CT Scanner | ECG Machine | Ventilators,No,Level II,11.7
PUN137,SAI SNEH HOSPITAL AND DIAGNOSTIC CENTRE PVT LTD,Pune,Private,18.4828,73.8078,30,8,4,0,1,1,Orthopedic Surgeon | Nephrologist | Radiologist | Gastroenterologist | Neurologist,X-Ray Machine | Dialysis Unit | CT Scanner | Cath Lab | Blood Bank | Ultrasound,Yes,Level II,14.2
PUN138,SANJEEVANI HOSPITAL ICU AND TRAUMA UNIT,Pune,Private,18.5124,73.8473,50,13,7,1,2,1,Nephrologist | Gastroenterologist | Pulmonologist | Radiologist | Emergency Medicine,Blood Bank | ECG Machine | CT Scanner | Ventilators | Ultrasound | Dialysis Unit,No,Level I,7.2
PUN139,"SANJEEVANI MEDICAL FOUNDATION, LONAVALA",Pune,Private,18.5665,73.7819,50,13,7,0,2,2,Nephrologist | Emergency Medicine | Orthopedic Surgeon | Pulmonologist | Trauma Surgeon,Ventilators | Dialysis Unit | Blood Bank | Cath Lab | X-Ray Machine | ECG Machine,Yes,Level III,12.0
PUN140,"SDH 100 Baramati, Dist. Pune",Pune,Private,18.5027,73.9164,100,25,15,5,5,1,Radiologist | Orthopedic Surgeon | Nephrologist | Pulmonologist | Gastroenterologist,Blood Bank | Dialysis Unit | MRI Machine | ECG Machine | Ventilators | CT Scanner,Yes,Level II,6.9
PUN141,SDH 50 Bhor,Pune,Private,18.5213,73.8512,50,13,7,2,2,2,Nephrologist | Emergency Medicine | Orthopedic Surgeon | Oncologist | Neurologist,Defibrillators | Ventilators | Dialysis Unit | X-Ray Machine | CT Scanner | ECG Machine,Yes,Level II,8.0
PUN142,SDH 50 Daund,Pune,Private,18.5095,73.9185,50,13,7,0,2,2,Trauma Surgeon | Nephrologist | Gastroenterologist | Orthopedic Surgeon | Pulmonologist,Blood Bank | X-Ray Machine | Defibrillators | Ventilators | CT Scanner | MRI Machine,Yes,Level I,8.8
PUN143,SDH 50 Indapur,Pune,Private,18.5096,73.9341,50,13,7,0,2,2,Gastroenterologist | Pulmonologist | Neurologist | Cardiologist | Oncologist,Cath Lab | CT Scanner | MRI Machine | X-Ray Machine | Ventilators | Defibrillators,Yes,Level II,11.5
PUN144,SETH TARACHAND RAMNATH CHARITABLE AYURVEDIC HOSPITAL,Pune,Government,18.4633,73.8697,222,56,33,9,11,3,Pulmonologist | Trauma Surgeon | Gastroenterologist | Orthopedic Surgeon | Nephrologist,CT Scanner | Cath Lab | Blood Bank | ECG Machine | Dialysis Unit | Ultrasound,Yes,Level I,5.5
PUN145,"SHANKARRAO MASULKAR URBAN HEALTH CENTER AND EYE HOSPITAL,PUNE CITY,GOVT",Pune,Private,18.5754,73.9203,80,20,12,3,4,0,Radiologist | Trauma Surgeon | Orthopedic Surgeon | Emergency Medicine | Pulmonologist,Ultrasound | Dialysis Unit | MRI Machine | Ventilators | Cath Lab | Defibrillators,Yes,Level II,8.8
PUN146,"SHASWAT HOSPITAL KOTHRUD,PUNE CITY,PUNE",Pune,Private,18.5587,73.7808,56,14,8,2,2,2,Orthopedic Surgeon | Emergency Medicine | Nephrologist | Radiologist | Oncologist,Ventilators | Ultrasound | X-Ray Machine | Cath Lab | ECG Machine | Dialysis Unit,No,Level III,7.6
PUN147,SHIVMANGAL HOSPITAL,Pune,Private,18.508,73.9171,30,8,4,0,1,0,Pulmonologist | Trauma Surgeon | Gastroenterologist | Nephrologist | Neurologist,Ultrasound | Defibrillators | CT Scanner | X-Ray Machine | ECG Machine | MRI Machine,Yes,Level III,14.1
PUN148,SHRADDHA HOSPITAL,Pune,Private,18.4551,73.8774,35,9,5,1,1,0,Orthopedic Surgeon | Radiologist | Cardiologist | Pulmonologist | Emergency Medicine,ECG Machine | Ultrasound | Ventilators | Defibrillators | X-Ray Machine | MRI Machine,Yes,Level III,8.4
PUN149,SHREE MAYURESHWAR RURAL HOSPITAL,Pune,Private,18.5232,73.8397,50,13,7,1,2,2,Neurologist | Pulmonologist | Emergency Medicine | Orthopedic Surgeon | Trauma Surgeon,Cath Lab | ECG Machine | Blood Bank | Ventilators | Ultrasound | Defibrillators,Yes,Level I,11.8
PUN150,SHREE MINERVA HOSPITAL & REASEARCH CENTER,Pune,Private,18.5372,73.8524,35,9,5,1,1,0,Pulmonologist | Oncologist | Gastroenterologist | Orthopedic Surgeon | Trauma Surgeon,Defibrillators | Ventilators | Dialysis Unit | Cath Lab | X-Ray Machine | ECG Machine,No,Level II,11.9
PUN151,SHREE MULTISPECIALITY HOSPITAL & ICU,Pune,Private,18.6308,73.7995,30,8,4,0,1,0,Gastroenterologist | Oncologist | Orthopedic Surgeon | Emergency Medicine | Nephrologist,CT Scanner | Ventilators | MRI Machine | X-Ray Machine | Ultrasound | Cath Lab,Yes,Level II,10.9
PUN152,SHRI GANPATI HEALTH CARES VEDANTA CRITICARE MULTISPECIALITY HOSPITAL CARDIAC AND ADVANCE TRAUMA CARE CENTER,Pune,Private,18.5585,73.783,102,26,15,6,5,3,Cardiologist | Gastroenterologist | Radiologist | Oncologist | Nephrologist,X-Ray Machine | MRI Machine | Ventilators | ECG Machine | Blood Bank | Dialysis Unit,Yes,Level II,11.5
PUN153,SIDDHIVINAYAK HOSPITAL AND RESEARCH CENTRE,Pune,Private,18.4672,73.8712,100,25,15,0,5,0,Pulmonologist | Orthopedic Surgeon | Trauma Surgeon | Gastroenterologist | Oncologist,Ultrasound | Defibrillators | Blood Bank | Ventilators | X-Ray Machine | Dialysis Unit,Yes,Level I,13.9
PUN154,SILVER BIRCH MULTISPECALITY HOSPITAL,Pune,Private,18.5845,73.7457,32,8,4,0,1,1,Radiologist | Orthopedic Surgeon | Trauma Surgeon | Nephrologist | Oncologist,X-Ray Machine | MRI Machine | Defibrillators | Dialysis Unit | CT Scanner | Ventilators,Yes,Level I,11.9
PUN155,SITAI HOSPITAL,Pune,Private,18.4871,73.8192,30,8,4,1,1,0,Gastroenterologist | Neurologist | Radiologist | Emergency Medicine | Trauma Surgeon,Ultrasound | Cath Lab | X-Ray Machine | Defibrillators | CT Scanner | ECG Machine,No,Level I,6.8
PUN156,SPARSH HOSPITAL,Pune,Private,18.5047,73.9262,105,26,15,0,5,3,Nephrologist | Neurologist | Cardiologist | Trauma Surgeon | Pulmonologist,MRI Machine | Blood Bank | ECG Machine | Defibrillators | Ultrasound | Cath Lab,Yes,Level II,5.5
PUN157,"SUNRISE HOSPITAL ,PUNE",Pune,Private,18.4668,73.8731,30,8,4,0,1,1,Trauma Surgeon | Nephrologist | Cardiologist | Emergency Medicine | Radiologist,ECG Machine | Ultrasound | MRI Machine | Dialysis Unit | CT Scanner | Cath Lab,Yes,Level II,8.3
PUN158,SUNSHINE MULTISPECIALITY HOSPITAL,Pune,Private,18.4651,73.869,30,8,4,1,1,1,Gastroenterologist | Trauma Surgeon | Nephrologist | Neurologist | Pulmonologist,Defibrillators | Ultrasound | Ventilators | CT Scanner | MRI Machine | Cath Lab,Yes,Level III,9.0
PUN159,SWA. SUKHALALJI KHABIYA JAIN DHARMARTH HOSPITAL,Pune,Private,18.4509,73.8636,42,11,6,2,2,0,Gastroenterologist | Cardiologist | Neurologist | Trauma Surgeon | Pulmonologist,Blood Bank | CT Scanner | Ventilators | X-Ray Machine | MRI Machine | Dialysis Unit,No,Level I,10.0
PUN160,"Saiseva Multispeciality Hospital And Icu,Baramati,Pvt,Pune",Pune,Private,18.5623,73.9049,30,8,4,0,1,1,Oncologist | Emergency Medicine | Pulmonologist | Trauma Surgeon | Orthopedic Surgeon,Ventilators | Cath Lab | MRI Machine | Defibrillators | CT Scanner | Dialysis Unit,Yes,Level II,8.9
PUN161,Samarth Hospital And Research Centre,Pune,Private,18.4949,73.8098,100,25,15,2,5,0,Trauma Surgeon | Nephrologist | Radiologist | Oncologist | Emergency Medicine,Cath Lab | CT Scanner | ECG Machine | Dialysis Unit | Ventilators | X-Ray Machine,Yes,Level III,9.0
PUN162,"Sana Hospital,Pune City,Pvt",Pune,Private,18.594,73.7292,20,5,3,1,1,1,Pulmonologist | Emergency Medicine | Cardiologist | Neurologist | Radiologist,Cath Lab | Blood Bank | CT Scanner | Dialysis Unit | Ultrasound | MRI Machine,No,Level III,13.0
PUN163,Sanchit Hospital,Pune,Private,18.5026,73.9219,50,13,7,0,2,0,Cardiologist | Neurologist | Nephrologist | Gastroenterologist | Radiologist,Blood Bank | MRI Machine | Cath Lab | ECG Machine | Dialysis Unit | Defibrillators,Yes,Level III,9.0
PUN164,"Sardar Vallabhbhai Patel Cantonment General Hospital,Pune",Pune,Private,18.5702,73.9126,100,25,15,5,5,4,Pulmonologist | Trauma Surgeon | Cardiologist | Emergency Medicine | Oncologist,MRI Machine | Dialysis Unit | CT Scanner | Ultrasound | Ventilators | X-Ray Machine,No,Level I,8.8
PUN165,Sassoon General Hospital Pune,Pune,Government,18.5327,73.8405,1296,324,194,60,64,9,Trauma Surgeon | Pulmonologist | Orthopedic Surgeon | Neurologist | Oncologist,X-Ray Machine | Dialysis Unit | Ventilators | ECG Machine | Cath Lab | MRI Machine,No,Level II,8.4
PUN166,Shatayu Hospital and Ayurvedic Research Centre,Pune,Private,18.4752,73.8148,30,8,4,1,1,0,Neurologist | Pulmonologist | Gastroenterologist | Radiologist | Cardiologist,Cath Lab | X-Ray Machine | Blood Bank | CT Scanner | Ultrasound | Dialysis Unit,No,Level III,11.8
PUN167,"Shinde Hospital,Shirur,Pune,Pvt",Pune,Private,18.5742,73.9064,15,4,2,0,1,0,Radiologist | Cardiologist | Pulmonologist | Nephrologist | Trauma Surgeon,CT Scanner | Cath Lab | Ventilators | Defibrillators | Ultrasound | Blood Bank,Yes,Level II,13.0
PUN168,Shingote Multispeciality Hospital Prasutigruah,Pune,Private,18.5217,73.8439,30,8,4,1,1,0,Trauma Surgeon | Emergency Medicine | Oncologist | Pulmonologist | Gastroenterologist,X-Ray Machine | Dialysis Unit | ECG Machine | Cath Lab | Defibrillators | Blood Bank,No,Level II,10.2
PUN169,Shlok Hospital,Pune,Private,18.5753,73.915,50,13,7,1,2,2,Nephrologist | Orthopedic Surgeon | Pulmonologist | Trauma Surgeon | Cardiologist,Ventilators | Dialysis Unit | ECG Machine | CT Scanner | Blood Bank | Ultrasound,No,Level II,10.0
PUN170,Shree Multispeciality hospital,Pune,Private,18.4859,73.8147,30,8,4,1,1,0,Trauma Surgeon | Neurologist | Pulmonologist | Emergency Medicine | Oncologist,Blood Bank | CT Scanner | Dialysis Unit | Cath Lab | Ultrasound | Ventilators,No,Level III,6.9
PUN171,"Shree Varad Vinayak Hospital,Daund,Pune,Pvt",Pune,Private,18.5043,73.9261,60,15,9,3,3,2,Oncologist | Neurologist | Emergency Medicine | Cardiologist | Radiologist,Ventilators | Defibrillators | X-Ray Machine | Blood Bank | Ultrasound | ECG Machine,Yes,Level III,5.6
PUN172,"Shree hospitals criticare and trauma center pvt ltd , Kharadi, Hadapsar by pass road, Pune",Pune,Private,18.4874,73.8129,72,18,10,1,3,1,Neurologist | Trauma Surgeon | Gastroenterologist | Orthopedic Surgeon | Emergency Medicine,Dialysis Unit | CT Scanner | Cath Lab | ECG Machine | Ventilators | X-Ray Machine,No,Level I,6.6
PUN173,"Shwas Multispeciality Hospital , Kharadi",Pune,Private,18.6368,73.7923,50,13,7,1,2,0,Radiologist | Neurologist | Cardiologist | Pulmonologist | Nephrologist,Defibrillators | Blood Bank | Ventilators | Ultrasound | ECG Machine | CT Scanner,No,Level II,14.4
PUN174,Siddhivinayak General And Multispeciality Hospital,Pune,Private,18.6308,73.7958,31,8,4,1,1,1,Pulmonologist | Trauma Surgeon | Emergency Medicine | Orthopedic Surgeon | Nephrologist,CT Scanner | ECG Machine | Ultrasound | Dialysis Unit | X-Ray Machine | Cath Lab,No,Level II,12.5
PUN175,"Silver Birch Multispeciality Hospital,Dhayari,Pune,Pvt",Pune,Private,18.5822,73.7334,48,12,7,2,2,0,Trauma Surgeon | Orthopedic Surgeon | Radiologist | Pulmonologist | Oncologist,Defibrillators | Ventilators | Cath Lab | MRI Machine | X-Ray Machine | Dialysis Unit,No,Level II,8.5
PUN176,"Smt. Kashibai Navale Medical College & General Hospital ,Narhe",Pune,Government,18.4842,73.8213,800,200,120,9,40,26,Trauma Surgeon | Cardiologist | Neurologist | Gastroenterologist | Nephrologist,Ventilators | Dialysis Unit | X-Ray Machine | MRI Machine | Defibrillators | Blood Bank,Yes,Level III,5.1
PUN177,"Sub District Hospital,Manchar",Pune,Private,18.56,73.7892,100,25,15,2,5,5,Cardiologist | Gastroenterologist | Pulmonologist | Oncologist | Radiologist,CT Scanner | Ventilators | ECG Machine | Ultrasound | Blood Bank | MRI Machine,No,Level II,10.7
PUN178,Surya Hospitals Pvt Ltd. Surya Sahyadri Hospital,Pune,Private,18.5166,73.848,71,18,10,1,3,2,Orthopedic Surgeon | Nephrologist | Gastroenterologist | Pulmonologist | Oncologist,ECG Machine | Dialysis Unit | Defibrillators | Cath Lab | Ventilators | Ultrasound,Yes,Level III,10.7
PUN179,Sushrut Hospital,Pune,Private,18.5038,73.8355,47,12,7,0,2,0,Nephrologist | Radiologist | Oncologist | Neurologist | Emergency Medicine,MRI Machine | Blood Bank | Ultrasound | X-Ray Machine | Cath Lab | ECG Machine,No,Level I,6.1
PUN180,"Swami Samarth Hospital Jejuri,Purandhar,Pune,Pvt",Pune,Private,18.5982,73.7334,31,8,4,0,1,0,Pulmonologist | Emergency Medicine | Oncologist | Nephrologist | Orthopedic Surgeon,Dialysis Unit | Cath Lab | Defibrillators | Ultrasound | CT Scanner | X-Ray Machine,No,Level II,10.7
PUN181,Symbiosis University Hospital & research Center,Pune,Government,18.6301,73.8066,300,75,45,6,15,14,Radiologist | Oncologist | Trauma Surgeon | Emergency Medicine | Gastroenterologist,ECG Machine | Defibrillators | CT Scanner | Ultrasound | Blood Bank | X-Ray Machine,No,Level I,9.6
PUN182,Synergy Multispeciality Hospital,Pune,Private,18.5338,73.8395,30,8,4,0,1,0,Pulmonologist | Nephrologist | Gastroenterologist | Oncologist | Neurologist,ECG Machine | Defibrillators | X-Ray Machine | Ultrasound | Cath Lab | Blood Bank,Yes,Level III,8.4
PUN183,"Trust HealthCare Platinum MultiSpeciality Hospital,Pune City,Govt.Pune",Pune,Private,18.4553,73.8673,102,26,15,6,5,2,Trauma Surgeon | Nephrologist | Radiologist | Oncologist | Pulmonologist,CT Scanner | Ultrasound | MRI Machine | ECG Machine | Blood Bank | Cath Lab,No,Level III,7.2
PUN184,UNIQUE HOSPITAL,Pune,Private,18.4781,73.823,100,25,15,1,5,1,Cardiologist | Emergency Medicine | Radiologist | Gastroenterologist | Pulmonologist,MRI Machine | Ventilators | Cath Lab | Dialysis Unit | CT Scanner | ECG Machine,No,Level III,11.9
PUN185,UNIVERSAL HOSPITAL,Pune,Private,18.5057,73.9172,40,10,6,0,2,2,Trauma Surgeon | Pulmonologist | Gastroenterologist | Oncologist | Radiologist,Cath Lab | ECG Machine | Blood Bank | MRI Machine | Ultrasound | Defibrillators,Yes,Level III,8.3
PUN186,"Urokul, Kulkami Uro Surgery Institute Pvt Ltd",Pune,Private,18.4596,73.8738,105,26,15,2,5,3,Nephrologist | Emergency Medicine | Oncologist | Cardiologist | Pulmonologist,MRI Machine | Cath Lab | Dialysis Unit | Blood Bank | ECG Machine | CT Scanner,Yes,Level II,5.3
PUN187,"Ushakiran Hospital,Haveli,Pune,Pvt",Pune,Private,18.6316,73.8078,50,13,7,1,2,0,Cardiologist | Gastroenterologist | Trauma Surgeon | Emergency Medicine | Radiologist,Ultrasound | Dialysis Unit | MRI Machine | Ventilators | ECG Machine | X-Ray Machine,Yes,Level II,6.0
PUN188,VIGHNAHARTA SUPER SPECIALITY HOSPITAL,Pune,Private,18.4548,73.8694,20,5,3,1,1,0,Gastroenterologist | Trauma Surgeon | Neurologist | Cardiologist | Pulmonologist,Defibrillators | Ventilators | Cath Lab | MRI Machine | Dialysis Unit | ECG Machine,No,Level II,5.8
PUN189,VIGHNHARTA HOSPITAL,Pune,Private,18.623,73.7956,33,8,4,1,1,0,Cardiologist | Trauma Surgeon | Orthopedic Surgeon | Radiologist | Gastroenterologist,Ultrasound | Dialysis Unit | Ventilators | Cath Lab | ECG Machine | Blood Bank,Yes,Level I,12.8
PUN190,VISION NEXT Foundation Dattatray Walse Patil Eyecare Hospital,Pune,Private,18.458,73.8578,5,1,2,0,1,1,Oncologist | Emergency Medicine | Nephrologist | Trauma Surgeon | Radiologist,MRI Machine | Ventilators | Blood Bank | ECG Machine | Cath Lab | Defibrillators,No,Level I,8.8
PUN191,Varadvinayak Multispeciality Hospital,Pune,Private,18.5346,73.8507,51,13,7,0,2,2,Pulmonologist | Neurologist | Trauma Surgeon | Gastroenterologist | Orthopedic Surgeon,MRI Machine | Ultrasound | X-Ray Machine | ECG Machine | CT Scanner | Ventilators,No,Level II,12.1
PUN192,"Vighnahar Nursing Homes Minoo Mehta Memorial Hospital,Junnar,Pvt,Pune",Pune,Private,18.6354,73.8096,30,8,4,0,1,1,Cardiologist | Oncologist | Gastroenterologist | Trauma Surgeon | Radiologist,CT Scanner | X-Ray Machine | Dialysis Unit | Blood Bank | Cath Lab | MRI Machine,Yes,Level II,6.2
PUN193,"Vighnaharta Hospital,Junner,Pune,Pvt",Pune,Private,18.5608,73.9166,35,9,5,0,1,1,Pulmonologist | Cardiologist | Oncologist | Trauma Surgeon | Radiologist,ECG Machine | Dialysis Unit | Defibrillators | X-Ray Machine | MRI Machine | Ultrasound,No,Level II,7.9
PUN194,"Vighnaharta Hospital,Mawal,Pune,Pvt",Pune,Private,18.559,73.9152,32,8,4,0,1,0,Oncologist | Gastroenterologist | Pulmonologist | Cardiologist | Orthopedic Surgeon,Blood Bank | ECG Machine | Defibrillators | MRI Machine | Ventilators | X-Ray Machine,No,Level III,8.0
PUN195,"Vighnaharta Multispeciality Hospital,Junner,Pune,Pvt",Pune,Private,18.4663,73.8775,30,8,4,0,1,0,Cardiologist | Oncologist | Nephrologist | Orthopedic Surgeon | Pulmonologist,Blood Bank | CT Scanner | ECG Machine | MRI Machine | Ventilators | Defibrillators,Yes,Level I,10.5
PUN196,Vishwaniranjan Eye Hospital,Pune,Private,18.5277,73.8478,6,2,2,0,1,1,Oncologist | Nephrologist | Orthopedic Surgeon | Pulmonologist | Trauma Surgeon,Ventilators | Dialysis Unit | Blood Bank | MRI Machine | ECG Machine | Ultrasound,No,Level I,11.4
PUN197,Wisdom Superspeciality Hospital Pvt Ltd,Pune,Private,18.4908,73.8065,49,12,7,2,2,1,Nephrologist | Pulmonologist | Radiologist | Cardiologist | Neurologist,MRI Machine | Defibrillators | Cath Lab | Dialysis Unit | CT Scanner | Ultrasound,No,Level I,14.9
PUN198,"Women Hospital, Baramati, Dist. Pune",Pune,Private,18.5218,73.8477,60,15,9,1,3,1,Emergency Medicine | Pulmonologist | Neurologist | Orthopedic Surgeon | Oncologist,X-Ray Machine | MRI Machine | Ultrasound | Dialysis Unit | ECG Machine | CT Scanner,Yes,Level III,14.5
PUN199,YASHWANTRAO CHAVAN MULTISPECIALITY HOSPITAL,Pune,Private,18.5201,73.8597,84,21,12,0,4,3,Cardiologist | Pulmonologist | Nephrologist | Neurologist | Trauma Surgeon,Blood Bank | Ventilators | Ultrasound | MRI Machine | ECG Machine | X-Ray Machine,No,Level II,11.6
PUN200,Yash pediatric Hospital,Pune,Private,18.4602,73.8704,60,15,9,1,3,1,Neurologist | Pulmonologist | Gastroenterologist | Cardiologist | Nephrologist,ECG Machine | Ventilators | X-Ray Machine | Ultrasound | Defibrillators | MRI Machine,Yes,Level I,6.0
PUN201,Yashwantrao Chavan Memorial Hospital,Pune,Government,18.5267,73.8652,750,188,112,15,37,26,Trauma Surgeon | Orthopedic Surgeon | Radiologist | Cardiologist | Gastroenterologist,Dialysis Unit | X-Ray Machine | MRI Machine | Blood Bank | CT Scanner | Defibrillators,Yes,Level I,14.7
PUN202,Yogeshwari Hospital & ICU,Pune,Private,18.5113,73.9349,50,13,7,0,2,2,Emergency Medicine | Trauma Surgeon | Orthopedic Surgeon | Nephrologist | Cardiologist,Ventilators | CT Scanner | MRI Machine | Ultrasound | X-Ray Machine | Defibrillators,No,Level I,10.6
PUN203,ZEDPLUS AND KASTURI HOSPITAL,Pune,Private,18.5209,73.852,37,9,5,0,1,0,Nephrologist | Pulmonologist | Emergency Medicine | Gastroenterologist | Neurologist,Dialysis Unit | MRI Machine | Defibrillators | X-Ray Machine | ECG Machine | Blood Bank,No,Level II,11.5
PUN204,giriraj Hospital,Pune,Private,18.4523,73.8654,102,26,15,4,5,2,Cardiologist | Emergency Medicine | Neurologist | Nephrologist | Trauma Surgeon,X-Ray Machine | Blood Bank | Ventilators | Cath Lab | MRI Machine | Defibrillators,No,Level II,9.1
PUN205,Grand Total,,Government,18.5604,73.7752,21604,5451,3240,1039,1080,1076,Emergency Medicine | Oncologist | Gastroenterologist | Radiologist | Trauma Surgeon,MRI Machine | Ultrasound | CT Scanner | X-Ray Machine | Cath Lab | ECG Machine,No,Level II,6.1
